{"zone_id": "Z01", "name": "Downtown Core", "type": "urban_commercial", "city": "Riverton", "state": "Columbia", "population": 8200, "area_sq_miles": 3.17, "median_household_income": 52000, "pct_under_18": 0.12, "pct_over_65": 0.08, "pct_minority": 0.17, "pct_below_poverty": 0.54, "housing_units": 3299, "pct_built_before_1978": 0.17, "environmental_risk_score": "moderate", "centroid_lat": 35.42, "centroid_lon": -86.78}
{"zone_id": "Z02", "name": "Riverside District", "type": "mixed_use", "city": "Riverton", "state": "Columbia", "population": 6800, "area_sq_miles": 3.3, "median_household_income": 61000, "pct_under_18": 0.18, "pct_over_65": 0.11, "pct_minority": 0.69, "pct_below_poverty": 0.45, "housing_units": 2870, "pct_built_before_1978": 0.21, "environmental_risk_score": "low", "centroid_lat": 35.428, "centroid_lon": -86.792}
{"zone_id": "Z03", "name": "Old Mill Quarter", "type": "industrial", "city": "Riverton", "state": "Columbia", "population": 4100, "area_sq_miles": 1.61, "median_household_income": 38000, "pct_under_18": 0.22, "pct_over_65": 0.14, "pct_minority": 0.45, "pct_below_poverty": 0.64, "housing_units": 1639, "pct_built_before_1978": 0.63, "environmental_risk_score": "high", "centroid_lat": 35.41, "centroid_lon": -86.772}
{"zone_id": "Z04", "name": "Harbor Point", "type": "industrial", "city": "Riverton", "state": "Columbia", "population": 3200, "area_sq_miles": 2.82, "median_household_income": 35000, "pct_under_18": 0.2, "pct_over_65": 0.16, "pct_minority": 0.28, "pct_below_poverty": 0.72, "housing_units": 1475, "pct_built_before_1978": 0.5, "environmental_risk_score": "high", "centroid_lat": 35.405, "centroid_lon": -86.785}
{"zone_id": "Z05", "name": "Westlake", "type": "residential_affluent", "city": "Riverton", "state": "Columbia", "population": 9500, "area_sq_miles": 3.78, "median_household_income": 95000, "pct_under_18": 0.24, "pct_over_65": 0.12, "pct_minority": 0.57, "pct_below_poverty": 0.19, "housing_units": 3757, "pct_built_before_1978": 0.2, "environmental_risk_score": "low", "centroid_lat": 35.432, "centroid_lon": -86.805}
{"zone_id": "Z06", "name": "Cedar Hills", "type": "residential_middle", "city": "Riverton", "state": "Columbia", "population": 11200, "area_sq_miles": 2.05, "median_household_income": 67000, "pct_under_18": 0.28, "pct_over_65": 0.1, "pct_minority": 0.21, "pct_below_poverty": 0.4, "housing_units": 5205, "pct_built_before_1978": 0.32, "environmental_risk_score": "low", "centroid_lat": 35.44, "centroid_lon": -86.795}
{"zone_id": "Z07", "name": "Northgate", "type": "residential_middle", "city": "Riverton", "state": "Columbia", "population": 8900, "area_sq_miles": 3.79, "median_household_income": 58000, "pct_under_18": 0.26, "pct_over_65": 0.13, "pct_minority": 0.59, "pct_below_poverty": 0.52, "housing_units": 4248, "pct_built_before_1978": 0.28, "environmental_risk_score": "moderate", "centroid_lat": 35.445, "centroid_lon": -86.775}
{"zone_id": "Z08", "name": "Eastside", "type": "residential_low_income", "city": "Riverton", "state": "Columbia", "population": 7600, "area_sq_miles": 2.84, "median_household_income": 32000, "pct_under_18": 0.32, "pct_over_65": 0.09, "pct_minority": 0.65, "pct_below_poverty": 0.75, "housing_units": 3542, "pct_built_before_1978": 0.62, "environmental_risk_score": "high", "centroid_lat": 35.425, "centroid_lon": -86.76}
{"zone_id": "Z09", "name": "Southview", "type": "residential_low_income", "city": "Riverton", "state": "Columbia", "population": 6900, "area_sq_miles": 3.41, "median_household_income": 29000, "pct_under_18": 0.34, "pct_over_65": 0.11, "pct_minority": 0.18, "pct_below_poverty": 0.73, "housing_units": 2821, "pct_built_before_1978": 0.52, "environmental_risk_score": "high", "centroid_lat": 35.4, "centroid_lon": -86.765}
{"zone_id": "Z10", "name": "Parkland Heights", "type": "residential_affluent", "city": "Riverton", "state": "Columbia", "population": 7200, "area_sq_miles": 1.66, "median_household_income": 102000, "pct_under_18": 0.22, "pct_over_65": 0.15, "pct_minority": 0.21, "pct_below_poverty": 0.13, "housing_units": 3193, "pct_built_before_1978": 0.14, "environmental_risk_score": "low", "centroid_lat": 35.438, "centroid_lon": -86.81}
{"zone_id": "Z11", "name": "University District", "type": "institutional", "city": "Riverton", "state": "Columbia", "population": 12500, "area_sq_miles": 2.17, "median_household_income": 28000, "pct_under_18": 0.08, "pct_over_65": 0.03, "pct_minority": 0.28, "pct_below_poverty": 0.74, "housing_units": 5920, "pct_built_before_1978": 0.16, "environmental_risk_score": "low", "centroid_lat": 35.435, "centroid_lon": -86.77}
{"zone_id": "Z12", "name": "Greenfield", "type": "suburban", "city": "Riverton", "state": "Columbia", "population": 14000, "area_sq_miles": 3.05, "median_household_income": 72000, "pct_under_18": 0.3, "pct_over_65": 0.08, "pct_minority": 0.25, "pct_below_poverty": 0.42, "housing_units": 5548, "pct_built_before_1978": 0.14, "environmental_risk_score": "low", "centroid_lat": 35.45, "centroid_lon": -86.8}
{"zone_id": "Z13", "name": "Ironworks", "type": "industrial", "city": "Riverton", "state": "Columbia", "population": 2800, "area_sq_miles": 4.46, "median_household_income": 41000, "pct_under_18": 0.15, "pct_over_65": 0.18, "pct_minority": 0.53, "pct_below_poverty": 0.66, "housing_units": 1255, "pct_built_before_1978": 0.67, "environmental_risk_score": "high", "centroid_lat": 35.412, "centroid_lon": -86.758}
{"zone_id": "Z14", "name": "Millbrook", "type": "residential_middle", "city": "Riverton", "state": "Columbia", "population": 9800, "area_sq_miles": 3.67, "median_household_income": 55000, "pct_under_18": 0.27, "pct_over_65": 0.14, "pct_minority": 0.29, "pct_below_poverty": 0.49, "housing_units": 4033, "pct_built_before_1978": 0.25, "environmental_risk_score": "moderate", "centroid_lat": 35.395, "centroid_lon": -86.79}
{"zone_id": "Z15", "name": "Clearwater", "type": "mixed_use", "city": "Riverton", "state": "Columbia", "population": 5500, "area_sq_miles": 1.58, "median_household_income": 48000, "pct_under_18": 0.19, "pct_over_65": 0.1, "pct_minority": 0.72, "pct_below_poverty": 0.64, "housing_units": 2263, "pct_built_before_1978": 0.33, "environmental_risk_score": "moderate", "centroid_lat": 35.423, "centroid_lon": -86.788}
{"zone_id": "Z16", "name": "Ridgewood", "type": "suburban", "city": "Riverton", "state": "Columbia", "population": 10800, "area_sq_miles": 2.26, "median_household_income": 78000, "pct_under_18": 0.31, "pct_over_65": 0.09, "pct_minority": 0.7, "pct_below_poverty": 0.35, "housing_units": 4390, "pct_built_before_1978": 0.12, "environmental_risk_score": "low", "centroid_lat": 35.455, "centroid_lon": -86.772}
{"zone_id": "Z17", "name": "Lakeshore", "type": "residential_affluent", "city": "Riverton", "state": "Columbia", "population": 6100, "area_sq_miles": 2.88, "median_household_income": 88000, "pct_under_18": 0.2, "pct_over_65": 0.17, "pct_minority": 0.31, "pct_below_poverty": 0.28, "housing_units": 2865, "pct_built_before_1978": 0.14, "environmental_risk_score": "low", "centroid_lat": 35.415, "centroid_lon": -86.815}
{"zone_id": "Z18", "name": "Fairview", "type": "residential_low_income", "city": "Riverton", "state": "Columbia", "population": 5800, "area_sq_miles": 1.61, "median_household_income": 31000, "pct_under_18": 0.3, "pct_over_65": 0.13, "pct_minority": 0.75, "pct_below_poverty": 0.74, "housing_units": 2256, "pct_built_before_1978": 0.51, "environmental_risk_score": "high", "centroid_lat": 35.402, "centroid_lon": -86.755}
{"zone_id": "Z19", "name": "Maple Grove", "type": "suburban", "city": "Riverton", "state": "Columbia", "population": 11500, "area_sq_miles": 1.21, "median_household_income": 69000, "pct_under_18": 0.29, "pct_over_65": 0.11, "pct_minority": 0.53, "pct_below_poverty": 0.45, "housing_units": 4855, "pct_built_before_1978": 0.11, "environmental_risk_score": "low", "centroid_lat": 35.448, "centroid_lon": -86.808}
{"zone_id": "Z20", "name": "Warehouse Row", "type": "industrial", "city": "Riverton", "state": "Columbia", "population": 1900, "area_sq_miles": 2.21, "median_household_income": 36000, "pct_under_18": 0.1, "pct_over_65": 0.05, "pct_minority": 0.75, "pct_below_poverty": 0.7, "housing_units": 906, "pct_built_before_1978": 0.67, "environmental_risk_score": "high", "centroid_lat": 35.417, "centroid_lon": -86.762}
{"zone_id": "Z21", "name": "Hilltop", "type": "residential_middle", "city": "Riverton", "state": "Columbia", "population": 7400, "area_sq_miles": 0.84, "median_household_income": 53000, "pct_under_18": 0.25, "pct_over_65": 0.15, "pct_minority": 0.58, "pct_below_poverty": 0.58, "housing_units": 3209, "pct_built_before_1978": 0.25, "environmental_risk_score": "moderate", "centroid_lat": 35.442, "centroid_lon": -86.762}
{"zone_id": "Z22", "name": "River Bend", "type": "mixed_use", "city": "Riverton", "state": "Columbia", "population": 4800, "area_sq_miles": 3.17, "median_household_income": 57000, "pct_under_18": 0.17, "pct_over_65": 0.09, "pct_minority": 0.22, "pct_below_poverty": 0.52, "housing_units": 2041, "pct_built_before_1978": 0.39, "environmental_risk_score": "moderate", "centroid_lat": 35.408, "centroid_lon": -86.798}
{"zone_id": "Z23", "name": "St. Catherine's", "type": "residential_middle", "city": "Riverton", "state": "Columbia", "population": 8300, "area_sq_miles": 4.04, "median_household_income": 60000, "pct_under_18": 0.26, "pct_over_65": 0.16, "pct_minority": 0.31, "pct_below_poverty": 0.5, "housing_units": 3302, "pct_built_before_1978": 0.38, "environmental_risk_score": "moderate", "centroid_lat": 35.392, "centroid_lon": -86.802}
{"zone_id": "Z24", "name": "North Industrial Park", "type": "industrial", "city": "Riverton", "state": "Columbia", "population": 1500, "area_sq_miles": 4.02, "median_household_income": 40000, "pct_under_18": 0.08, "pct_over_65": 0.04, "pct_minority": 0.33, "pct_below_poverty": 0.68, "housing_units": 661, "pct_built_before_1978": 0.53, "environmental_risk_score": "high", "centroid_lat": 35.452, "centroid_lon": -86.755}
{"zone_id": "Z25", "name": "Brookside", "type": "residential_low_income", "city": "Riverton", "state": "Columbia", "population": 5200, "area_sq_miles": 3.62, "median_household_income": 33000, "pct_under_18": 0.33, "pct_over_65": 0.12, "pct_minority": 0.47, "pct_below_poverty": 0.75, "housing_units": 2251, "pct_built_before_1978": 0.5, "environmental_risk_score": "high", "centroid_lat": 35.398, "centroid_lon": -86.775}
